timestamp,elapsed_time,pos_x,pos_y,pos_z,raw_pos_x,raw_pos_y,raw_pos_z,error_x,error_y,roll_ref_rad,pitch_ref_rad,roll_ref_deg,pitch_ref_deg,pid_x_p,pid_x_i,pid_x_d,pid_y_p,pid_y_i,pid_y_d,frame_number,marker_count,send_success,control_active,loop_time_ms,command_sequence,feedback_sequence,feedback_roll_rad,feedback_pitch_rad,feedback_latency_ms,feedback_age_ms,feedback_match,feedback_delta_roll,feedback_delta_pitch,is_outlier,used_prediction,confidence,consecutive_outliers,data_valid,data_source,filter_threshold,tracking_valid,rb_error,rb_marker_count,rb_pos_x,rb_pos_y,rb_pos_z,rb_qx,rb_qy,rb_qz,rb_qw,rb_roll_deg,rb_pitch_deg,rb_yaw_deg
2025-10-17T22:02:30.820447,0.5239,-0.000280,0.002880,0.022595,-0.000250,0.002933,0.022668,0.000280,-0.002880,0.000039,0.000401,0.002,0.023,0.000039,0.000000,0.000000,0.000400,0.000001,-0.000000,3331337,4,1,1,0.54,1,0,0.000000,0.000000,,10.193,0,-0.000039,-0.000401,0,0,0.998,0,1,rigid_body,0.1327,1,0.00121,0,-0.000250,0.002933,0.022668,0.014087,0.000873,-0.001567,-0.999899,-1.615,-0.097,0.181
2025-10-17T22:02:30.848019,0.5515,-0.000357,0.002802,0.022473,-0.000511,0.002667,0.022244,0.000357,-0.002802,0.000949,-0.000520,0.054,-0.030,0.000050,0.000000,0.000899,0.000390,0.000001,-0.000911,3331340,4,1,1,17.62,2,0,0.000000,0.000000,,0.560,0,-0.000949,0.000520,0,0,0.998,0,1,rigid_body,0.1327,1,0.00091,0,-0.000503,0.002689,0.022200,0.009298,0.000788,0.003669,-0.999950,-1.065,-0.094,-0.420
2025-10-17T22:02:30.848205,0.5516,-0.000367,0.002805,0.022437,-0.000503,0.002689,0.022200,0.000367,-0.002805,0.000481,0.000047,0.028,0.003,0.000051,0.000000,0.000429,0.000390,0.000002,-0.000345,3331340,4,1,1,0.12,3,0,0.000000,0.000000,,0.748,0,-0.000481,-0.000047,0,0,0.998,0,1,rigid_body,0.1327,1,0.00092,0,-0.000503,0.002689,0.022200,0.009298,0.000788,0.003669,-0.999950,-1.065,-0.094,-0.420
2025-10-17T22:02:30.858402,0.5618,-0.000332,0.002799,0.022521,-0.000218,0.002821,0.022771,0.000332,-0.002799,-0.000201,0.000176,-0.012,0.010,0.000046,0.000000,-0.000248,0.000389,0.000003,-0.000216,3331341,4,1,1,0.17,4,0,0.000000,0.000000,,10.932,0,0.000201,-0.000176,0,0,0.998,0,1,rigid_body,0.1326,1,0.00115,0,-0.000218,0.002821,0.022771,0.015633,0.001319,-0.001440,-0.999876,-1.792,-0.149,0.167
2025-10-17T22:02:30.868966,0.5724,-0.000317,0.002778,0.022560,-0.000260,0.002769,0.022688,0.000317,-0.002778,-0.000232,0.000057,-0.013,0.003,0.000044,0.000000,-0.000277,0.000386,0.000003,-0.000332,3331342,4,1,1,0.29,5,0,0.000000,0.000000,,21.498,0,0.000232,-0.000057,0,0,0.998,0,1,rigid_body,0.1326,1,0.00120,0,-0.000260,0.002769,0.022688,0.014478,0.001926,-0.001806,-0.999892,-1.659,-0.218,0.210
2025-10-17T22:02:30.879374,0.5828,-0.000272,0.002801,0.022657,-0.000225,0.002821,0.022783,0.000272,-0.002801,-0.000605,0.000534,-0.035,0.031,0.000038,0.000000,-0.000643,0.000389,0.000004,0.000140,3331343,4,1,1,0.20,6,0,0.000000,0.000000,,7.566,0,0.000605,-0.000534,0,0,0.998,0,1,rigid_body,0.1326,1,0.00113,0,-0.000225,0.002821,0.022783,0.015873,0.001595,-0.001103,-0.999872,-1.819,-0.181,0.129
2025-10-17T22:02:30.889512,0.5929,-0.000347,0.002758,0.022512,-0.000499,0.002699,0.022188,0.000347,-0.002758,0.000702,-0.000068,0.040,-0.004,0.000048,0.000001,0.000654,0.000383,0.000004,-0.000456,3331344,4,1,1,0.17,7,0,0.000000,0.000000,,2.474,0,-0.000702,0.000068,0,0,0.998,0,1,rigid_body,0.1326,1,0.00093,0,-0.000499,0.002699,0.022188,0.009163,0.000673,0.003649,-0.999951,-1.050,-0.081,-0.417
2025-10-17T22:02:30.899955,0.6034,-0.000300,0.002805,0.022585,-0.000239,0.002890,0.022657,0.000300,-0.002805,-0.000256,0.000766,-0.015,0.044,0.000042,0.000001,-0.000298,0.000390,0.000005,0.000371,3331345,4,1,1,0.24,8,0,0.000000,0.000000,,12.913,0,0.000256,-0.000766,0,0,0.998,0,1,rigid_body,0.1326,1,0.00120,0,-0.000239,0.002890,0.022657,0.014382,0.001053,-0.001422,-0.999895,-1.648,-0.118,0.165
2025-10-17T22:02:30.910460,0.6139,-0.000283,0.002836,0.022587,-0.000224,0.002910,0.022646,0.000283,-0.002836,-0.000269,0.000908,-0.015,0.052,0.000039,0.000001,-0.000309,0.000394,0.000006,0.000508,3331346,4,1,1,0.22,9,0,0.000000,0.000000,,23.421,0,0.000269,-0.000908,0,0,0.998,0,1,rigid_body,0.1326,1,0.00121,0,-0.000224,0.002910,0.022646,0.013906,0.001007,-0.001724,-0.999901,-1.594,-0.113,0.199
2025-10-17T22:02:30.921004,0.6244,-0.000264,0.002868,0.022595,-0.000213,0.002920,0.022642,0.000264,-0.002868,-0.000318,0.000979,-0.018,0.056,0.000037,0.000001,-0.000355,0.000399,0.000006,0.000574,3331347,4,1,1,0.27,10,0,0.000000,0.000000,,3.286,0,0.000318,-0.000979,0,0,0.998,0,1,rigid_body,0.1326,1,0.00120,0,-0.000213,0.002920,0.022642,0.014023,0.001104,-0.001768,-0.999900,-1.607,-0.124,0.204
2025-10-17T22:02:30.931505,0.6349,-0.000332,0.002817,0.022458,-0.000472,0.002691,0.022205,0.000332,-0.002817,0.000693,0.000040,0.040,0.002,0.000046,0.000001,0.000646,0.000392,0.000007,-0.000359,3331348,4,1,1,0.23,11,2,0.000949,-0.000520,83.069,0.522,1,0.000256,-0.000560,0,0,0.998,0,1,rigid_body,0.1326,1,0.00094,0,-0.000472,0.002691,0.022205,0.008988,0.000706,0.003374,-0.999954,-1.030,-0.084,-0.386
2025-10-17T22:02:30.941988,0.6454,-0.000374,0.002781,0.022393,-0.000518,0.002667,0.022172,0.000374,-0.002781,0.000812,-0.000173,0.047,-0.010,0.000052,0.000001,0.000759,0.000387,0.000007,-0.000567,3331349,4,1,1,0.26,12,6,-0.000605,0.000534,59.148,3.584,1,-0.001417,0.000706,0,0,0.998,0,1,rigid_body,0.1326,1,0.00094,0,-0.000518,0.002667,0.022172,0.009168,0.000495,0.003715,-0.999951,-1.050,-0.061,-0.425
2025-10-17T22:02:30.952557,0.6560,-0.000340,0.002784,0.022491,-0.000224,0.002821,0.022786,0.000340,-0.002784,-0.000050,0.000200,-0.003,0.011,0.000047,0.000001,-0.000099,0.000387,0.000008,-0.000195,3331350,4,1,1,0.31,13,9,-0.000269,0.000908,,3.747,0,-0.000219,0.000709,0,0,0.998,0,1,rigid_body,0.1326,1,0.00112,0,-0.000224,0.002821,0.022786,0.015908,0.001503,-0.001294,-0.999872,-1.823,-0.170,0.151
2025-10-17T22:02:30.963106,0.6665,-0.000319,0.002760,0.022542,-0.000238,0.002742,0.022699,0.000319,-0.002760,-0.000238,0.000036,-0.014,0.002,0.000044,0.000001,-0.000283,0.000384,0.000009,-0.000357,3331351,4,1,1,0.30,14,9,-0.000269,0.000908,,14.294,0,-0.000031,0.000873,0,0,0.998,0,1,rigid_body,0.1327,1,0.00117,0,-0.000238,0.002742,0.022699,0.014725,0.002128,-0.002354,-0.999887,-1.688,-0.240,0.273
2025-10-17T22:02:30.973587,0.6770,-0.000379,0.002722,0.022425,-0.000483,0.002684,0.022195,0.000379,-0.002722,0.000643,-0.000196,0.037,-0.011,0.000053,0.000001,0.000589,0.000378,0.000009,-0.000584,3331352,4,1,1,0.29,15,9,-0.000269,0.000908,,9.254,0,-0.000912,0.001104,0,0,0.998,0,1,rigid_body,0.1327,1,0.00093,0,-0.000483,0.002684,0.022195,0.009139,0.000538,0.003476,-0.999952,-1.047,-0.065,-0.398
2025-10-17T22:02:30.983693,0.6871,-0.000322,0.002782,0.022520,-0.000221,0.002908,0.022667,0.000322,-0.002782,-0.000405,0.000888,-0.023,0.051,0.000045,0.000001,-0.000451,0.000387,0.000010,0.000491,3331353,4,1,1,0.21,16,9,-0.000269,0.000908,,3.688,0,0.000136,0.000021,0,0,0.998,0,1,rigid_body,0.1328,1,0.00119,0,-0.000221,0.002908,0.022667,0.014109,0.001250,-0.001563,-0.999898,-1.617,-0.141,0.181
2025-10-17T22:02:30.993905,0.6973,-0.000353,0.002761,0.022461,-0.000479,0.002681,0.022231,0.000353,-0.002761,0.000248,0.000337,0.014,0.019,0.000049,0.000001,0.000198,0.000384,0.000010,-0.000057,3331354,4,1,1,0.25,17,9,-0.000269,0.000908,,13.899,0,-0.000517,0.000571,0,0,0.998,0,1,rigid_body,0.1328,1,0.00090,0,-0.000479,0.002681,0.022231,0.009974,0.000687,0.003211,-0.999945,-1.143,-0.082,-0.367
2025-10-17T22:02:31.004285,0.7077,-0.000319,0.002800,0.022487,-0.000207,0.002904,0.022639,0.000319,-0.002800,-0.000286,0.000849,-0.016,0.049,0.000044,0.000001,-0.000331,0.000389,0.000011,0.000449,3331355,4,1,1,0.52,18,9,-0.000269,0.000908,,9.029,0,0.000016,0.000059,0,0,0.998,0,1,rigid_body,0.1327,1,0.00120,0,-0.000207,0.002904,0.022639,0.013858,0.000999,-0.001838,-0.999902,-1.588,-0.112,0.212
2025-10-17T22:02:31.014362,0.7178,-0.000296,0.002846,0.022516,-0.000221,0.002932,0.022642,0.000296,-0.002846,-0.000369,0.001138,-0.021,0.065,0.000041,0.000001,-0.000411,0.000396,0.000011,0.000731,3331356,4,1,1,0.35,19,9,-0.000269,0.000908,,3.803,0,0.000099,-0.000230,0,0,0.998,0,1,rigid_body,0.1326,1,0.00121,0,-0.000221,0.002932,0.022642,0.013704,0.000980,-0.001935,-0.999904,-1.571,-0.109,0.223
2025-10-17T22:02:31.024569,0.7280,-0.000344,0.002815,0.022442,-0.000505,0.002700,0.022184,0.000344,-0.002815,0.000471,0.000319,0.027,0.018,0.000048,0.000001,0.000422,0.000391,0.000012,-0.000084,3331357,4,1,1,0.47,20,9,-0.000269,0.000908,,13.987,0,-0.000741,0.000589,0,0,0.998,0,1,rigid_body,0.1326,1,0.00093,0,-0.000505,0.002700,0.022184,0.008981,0.000568,0.003703,-0.999953,-1.029,-0.069,-0.424
2025-10-17T22:02:31.035450,0.7389,-0.000319,0.002805,0.022528,-0.000229,0.002809,0.022785,0.000319,-0.002805,-0.000076,0.000252,-0.004,0.014,0.000044,0.000001,-0.000122,0.000390,0.000013,-0.000150,3331359,4,1,1,0.84,21,9,-0.000269,0.000908,,9.294,0,-0.000194,0.000656,0,0,0.998,0,1,rigid_body,0.1326,1,0.00112,0,-0.000249,0.002736,0.022716,0.014995,0.002295,-0.002038,-0.999883,-1.719,-0.259,0.237
2025-10-17T22:02:31.045069,0.7485,-0.000283,0.002795,0.022613,-0.000249,0.002736,0.022716,0.000283,-0.002795,-0.000441,0.000215,-0.025,0.012,0.000039,0.000002,-0.000482,0.000388,0.000013,-0.000187,3331360,4,1,1,0.29,22,9,-0.000269,0.000908,,18.918,0,0.000171,0.000693,0,0,0.998,0,1,rigid_body,0.1326,1,0.00113,0,-0.000262,0.002742,0.022692,0.014895,0.002004,-0.002066,-0.999885,-1.707,-0.226,0.240
2025-10-17T22:02:31.055859,0.7593,-0.000265,0.002803,0.022625,-0.000206,0.002928,0.022604,0.000265,-0.002803,-0.000360,0.000425,-0.021,0.024,0.000037,0.000002,-0.000398,0.000390,0.000014,0.000022,3331361,4,1,1,0.22,23,9,-0.000269,0.000908,,29.704,0,0.000090,0.000483,0,0,0.998,0,1,rigid_body,0.1326,1,0.00123,0,-0.000206,0.002928,0.022604,0.013434,0.000924,-0.001780,-0.999908,-1.540,-0.103,0.205
2025-10-17T22:02:31.066139,0.7696,-0.000235,0.002839,0.022668,-0.000236,0.002890,0.022640,0.000235,-0.002839,-0.000485,0.000844,-0.028,0.048,0.000033,0.000002,-0.000520,0.000395,0.000014,0.000435,3331362,4,1,1,0.18,24,9,-0.000269,0.000908,,9.218,0,0.000216,0.000064,0,0,0.998,0,1,rigid_body,0.1325,1,0.00121,0,-0.000236,0.002890,0.022640,0.014045,0.001007,-0.001708,-0.999900,-1.610,-0.113,0.197
2025-10-17T22:02:31.076735,0.7802,-0.000223,0.002861,0.022651,-0.000196,0.002901,0.022644,0.000223,-0.002861,-0.000308,0.000841,-0.018,0.048,0.000031,0.000002,-0.000341,0.000398,0.000015,0.000428,3331363,4,1,1,0.25,25,9,-0.000269,0.000908,,4.203,0,0.000039,0.000068,0,0,0.998,0,1,rigid_body,0.1325,1,0.00119,0,-0.000196,0.002901,0.022644,0.013823,0.001102,-0.001802,-0.999902,-1.584,-0.123,0.208
2025-10-17T22:02:31.086968,0.7904,-0.000215,0.002893,0.022644,-0.000204,0.002927,0.022649,0.000215,-0.002893,-0.000205,0.000970,-0.012,0.056,0.000030,0.000002,-0.000236,0.000402,0.000016,0.000552,3331364,4,1,1,0.32,26,9,-0.000269,0.000908,,14.441,0,-0.000065,-0.000062,0,0,0.998,0,1,rigid_body,0.1324,1,0.00121,0,-0.000204,0.002927,0.022649,0.013825,0.001127,-0.001855,-0.999902,-1.584,-0.126,0.214
2025-10-17T22:02:31.096939,0.8004,-0.000213,0.002917,0.022637,-0.000221,0.002928,0.022634,0.000213,-0.002917,-0.000092,0.000938,-0.005,0.054,0.000030,0.000002,-0.000123,0.000405,0.000016,0.000516,3331365,4,1,1,0.24,27,9,-0.000269,0.000908,,24.405,0,-0.000177,-0.000030,0,0,0.998,0,1,rigid_body,0.1323,1,0.00123,0,-0.000221,0.002928,0.022634,0.013642,0.001022,-0.001759,-0.999905,-1.563,-0.114,0.203
2025-10-17T22:02:31.107043,0.8105,-0.000298,0.002842,0.022504,-0.000486,0.002679,0.022199,0.000298,-0.002842,0.001032,-0.000294,0.059,-0.017,0.000041,0.000002,0.000989,0.000395,0.000017,-0.000705,3331366,4,1,1,0.25,28,9,-0.000269,0.000908,,4.438,0,-0.001301,0.001202,0,0,0.998,0,1,rigid_body,0.1323,1,0.00092,0,-0.000486,0.002679,0.022199,0.009180,0.000730,0.003551,-0.999951,-1.052,-0.087,-0.406
2025-10-17T22:02:31.117451,0.8209,-0.000281,0.002841,0.022570,-0.000224,0.002850,0.022754,0.000281,-0.002841,0.000233,0.000110,0.013,0.006,0.000039,0.000002,0.000192,0.000395,0.000017,-0.000302,3331367,4,1,1,0.22,29,9,-0.000269,0.000908,,14.850,0,-0.000502,0.000798,0,0,0.998,0,1,rigid_body,0.1324,1,0.00115,0,-0.000224,0.002850,0.022754,0.015485,0.001273,-0.000986,-0.999879,-1.775,-0.144,0.115
2025-10-17T22:02:31.127931,0.8314,-0.000267,0.002827,0.022625,-0.000213,0.002816,0.022771,0.000267,-0.002827,-0.000042,0.000137,-0.002,0.008,0.000037,0.000002,-0.000081,0.000393,0.000018,-0.000273,3331368,4,1,1,0.25,30,9,-0.000269,0.000908,,9.730,0,-0.000227,0.000771,0,0,0.998,0,1,rigid_body,0.1324,1,0.00114,0,-0.000213,0.002816,0.022771,0.015793,0.001286,-0.001409,-0.999873,-1.810,-0.145,0.164
2025-10-17T22:02:31.138432,0.8419,-0.000344,0.002773,0.022483,-0.000497,0.002682,0.022174,0.000344,-0.002773,0.000912,-0.000335,0.052,-0.019,0.000048,0.000002,0.000862,0.000385,0.000018,-0.000739,3331369,4,1,1,0.23,31,9,-0.000269,0.000908,,4.676,0,-0.001181,0.001243,0,0,0.998,0,1,rigid_body,0.1324,1,0.00093,0,-0.000497,0.002682,0.022174,0.009155,0.000617,0.003453,-0.999952,-1.049,-0.074,-0.395
2025-10-17T22:02:31.148808,0.8523,-0.000402,0.002725,0.022395,-0.000496,0.002660,0.022243,0.000402,-0.002725,0.001083,-0.000470,0.062,-0.027,0.000056,0.000002,0.001025,0.000379,0.000019,-0.000868,3331370,4,1,1,0.16,32,9,-0.000269,0.000908,,15.065,0,-0.001353,0.001378,0,0,0.998,0,1,rigid_body,0.1326,1,0.00090,0,-0.000496,0.002660,0.022243,0.010046,0.000819,0.003401,-0.999943,-1.151,-0.098,-0.389
2025-10-17T22:02:31.159388,0.8628,-0.000339,0.002787,0.022491,-0.000222,0.002913,0.022648,0.000339,-0.002787,-0.000280,0.000790,-0.016,0.045,0.000047,0.000002,-0.000330,0.000387,0.000020,0.000383,3331371,4,1,1,0.27,33,9,0.000000,0.000000,,10.114,0,0.000280,-0.000790,0,0,0.998,0,1,rigid_body,0.1327,1,0.00120,0,-0.000222,0.002913,0.022648,0.014151,0.001015,-0.001599,-0.999898,-1.622,-0.114,0.185
2025-10-17T22:02:31.169498,0.8729,-0.000314,0.002815,0.022511,-0.000227,0.002895,0.022630,0.000314,-0.002815,-0.000381,0.000899,-0.022,0.051,0.000044,0.000002,-0.000427,0.000391,0.000020,0.000487,3331372,4,1,1,0.22,34,9,0.000000,0.000000,,4.800,0,0.000381,-0.000899,0,0,0.998,0,1,rigid_body,0.1327,1,0.00122,0,-0.000227,0.002895,0.022630,0.013752,0.001039,-0.001727,-0.999904,-1.576,-0.116,0.200
2025-10-17T22:02:31.180145,0.8836,-0.000299,0.002842,0.022525,-0.000236,0.002903,0.022631,0.000299,-0.002842,-0.000303,0.000928,-0.017,0.053,0.000042,0.000002,-0.000347,0.000395,0.000021,0.000512,3331373,4,1,1,0.27,35,9,0.000000,0.000000,,0.126,0,0.000303,-0.000928,0,0,0.998,0,1,rigid_body,0.1327,1,0.00124,0,-0.000236,0.002903,0.022631,0.013634,0.000854,-0.001806,-0.999905,-1.563,-0.095,0.208
2025-10-17T22:02:31.190551,0.8940,-0.000254,0.002879,0.022581,-0.000211,0.002917,0.022606,0.000254,-0.002879,-0.000627,0.001062,-0.036,0.061,0.000035,0.000002,-0.000664,0.000400,0.000021,0.000641,3331374,4,1,1,0.19,36,9,0.000000,0.000000,,10.531,0,0.000627,-0.001062,0,0,0.998,0,1,rigid_body,0.1327,1,0.00122,0,-0.000211,0.002917,0.022606,0.013494,0.000957,-0.001729,-0.999907,-1.547,-0.107,0.200
2025-10-17T22:02:31.201003,0.9044,-0.000228,0.002898,0.022637,-0.000241,0.002877,0.022664,0.000228,-0.002898,-0.000534,0.000900,-0.031,0.052,0.000032,0.000002,-0.000568,0.000403,0.000022,0.000475,3331375,4,1,1,0.22,37,9,0.000000,0.000000,,5.649,0,0.000534,-0.000900,0,0,0.998,0,1,rigid_body,0.1326,1,0.00119,0,-0.000241,0.002877,0.022664,0.014433,0.000976,-0.001541,-0.999894,-1.654,-0.109,0.178
2025-10-17T22:02:31.211714,0.9151,-0.000231,0.002843,0.022645,-0.000235,0.002723,0.022667,0.000231,-0.002843,-0.000162,-0.000031,-0.009,-0.002,0.000032,0.000002,-0.000196,0.000395,0.000023,-0.000449,3331376,4,1,1,0.31,38,9,0.000000,0.000000,,0.118,0,0.000162,0.000031,0,0,0.998,0,1,rigid_body,0.1325,1,0.00118,0,-0.000235,0.002723,0.022667,0.014676,0.001759,-0.002140,-0.999888,-1.682,-0.198,0.248
2025-10-17T22:02:31.221911,0.9253,-0.000235,0.002803,0.022662,-0.000242,0.002729,0.022695,0.000235,-0.002803,0.000002,-0.000239,0.000,-0.014,0.000033,0.000002,-0.000033,0.000390,0.000023,-0.000652,3331377,4,1,1,0.23,39,9,0.000000,0.000000,,10.317,0,-0.000002,0.000239,0,0,0.998,0,1,rigid_body,0.1325,1,0.00114,0,-0.000242,0.002729,0.022695,0.015083,0.001960,-0.002189,-0.999882,-1.729,-0.221,0.254
2025-10-17T22:02:31.232436,0.9359,-0.000314,0.002751,0.022507,-0.000490,0.002663,0.022154,0.000314,-0.002751,0.000948,-0.000461,0.054,-0.026,0.000044,0.000003,0.000902,0.000382,0.000024,-0.000867,3331378,4,1,1,0.21,40,37,-0.000534,0.000900,25.964,5.608,1,-0.001482,0.001361,0,0,0.998,0,1,rigid_body,0.1324,1,0.00092,0,-0.000490,0.002663,0.022154,0.009092,0.000256,0.003571,-0.999952,-1.042,-0.033,-0.409
2025-10-17T22:02:31.243560,0.9470,-0.000294,0.002779,0.022535,-0.000221,0.002889,0.022625,0.000294,-0.002779,0.000178,0.000387,0.010,0.022,0.000041,0.000003,0.000135,0.000386,0.000024,-0.000023,3331379,4,1,1,0.69,41,38,-0.000162,-0.000031,,0.058,0,-0.000340,-0.000418,0,0,0.998,0,1,rigid_body,0.1325,1,0.00120,0,-0.000221,0.002889,0.022625,0.013925,0.000721,-0.001614,-0.999902,-1.596,-0.080,0.186
2025-10-17T22:02:31.253598,0.9570,-0.000271,0.002803,0.022551,-0.000204,0.002885,0.022622,0.000271,-0.002803,-0.000179,0.000691,-0.010,0.040,0.000038,0.000003,-0.000219,0.000390,0.000025,0.000277,3331380,4,1,1,0.35,42,38,-0.000162,-0.000031,,10.106,0,0.000017,-0.000722,0,0,0.998,0,1,rigid_body,0.1325,1,0.00121,0,-0.000204,0.002885,0.022622,0.014032,0.000749,-0.001729,-0.999900,-1.608,-0.083,0.199
2025-10-17T22:02:31.263778,0.9672,-0.000259,0.002839,0.022561,-0.000222,0.002897,0.022618,0.000259,-0.002839,-0.000193,0.000964,-0.011,0.055,0.000036,0.000003,-0.000232,0.000395,0.000026,0.000544,3331381,4,1,1,0.25,43,41,0.000178,0.000387,15.366,5.401,1,0.000371,-0.000577,0,0,0.998,0,1,rigid_body,0.1325,1,0.00121,0,-0.000222,0.002897,0.022618,0.013839,0.000664,-0.001687,-0.999903,-1.586,-0.073,0.194
2025-10-17T22:02:31.274194,0.9776,-0.000337,0.002790,0.022426,-0.000505,0.002648,0.022162,0.000337,-0.002790,0.000867,0.000050,0.050,0.003,0.000047,0.000003,0.000817,0.000388,0.000026,-0.000364,3331382,4,1,1,0.19,44,42,-0.000179,0.000691,20.136,0.595,1,-0.001046,0.000641,0,0,0.998,0,1,rigid_body,0.1325,1,0.00094,0,-0.000505,0.002648,0.022162,0.008974,0.000278,0.003376,-0.999954,-1.028,-0.035,-0.387
2025-10-17T22:02:31.284517,0.9880,-0.000369,0.002763,0.022367,-0.000486,0.002668,0.022157,0.000369,-0.002763,0.000768,-0.000047,0.044,-0.003,0.000051,0.000003,0.000714,0.000384,0.000027,-0.000458,3331383,4,1,1,0.16,45,42,-0.000179,0.000691,20.136,10.924,1,-0.000947,0.000738,0,0,0.998,0,1,rigid_body,0.1325,1,0.00092,0,-0.000486,0.002668,0.022157,0.009074,0.000297,0.003469,-0.999953,-1.040,-0.038,-0.397
2025-10-17T22:02:31.294674,0.9981,-0.000350,0.002735,0.022443,-0.000263,0.002709,0.022689,0.000350,-0.002735,0.000099,-0.000113,0.006,-0.006,0.000049,0.000003,0.000048,0.000380,0.000027,-0.000521,3331384,4,1,1,0.20,46,42,-0.000179,0.000691,20.136,21.076,1,-0.000278,0.000805,0,0,0.998,0,1,rigid_body,0.1326,1,0.00117,0,-0.000263,0.002709,0.022689,0.014756,0.001768,-0.002372,-0.999887,-1.691,-0.199,0.275
2025-10-17T22:02:31.305452,1.0089,-0.000316,0.002745,0.022528,-0.000200,0.002809,0.022768,0.000316,-0.002745,-0.000329,0.000313,-0.019,0.018,0.000044,0.000003,-0.000376,0.000382,0.000028,-0.000097,3331386,4,1,1,0.65,47,42,-0.000179,0.000691,,1.531,0,0.000150,0.000378,0,0,0.998,0,1,rigid_body,0.1326,1,0.00113,0,-0.000497,0.002666,0.022173,0.009213,0.000461,0.003570,-0.999951,-1.056,-0.057,-0.409
2025-10-17T22:02:31.315469,1.0189,-0.000317,0.002771,0.022496,-0.000210,0.002896,0.022617,0.000317,-0.002771,-0.000098,0.000676,-0.006,0.039,0.000044,0.000003,-0.000146,0.000385,0.000028,0.000263,3331387,4,1,1,0.17,48,42,-0.000179,0.000691,,11.548,0,-0.000080,0.000015,0,0,0.998,0,1,rigid_body,0.1327,1,0.00120,0,-0.000210,0.002896,0.022617,0.014027,0.000658,-0.001741,-0.999900,-1.608,-0.073,0.200
2025-10-17T22:02:31.325687,1.0291,-0.000271,0.002820,0.022565,-0.000217,0.002899,0.022621,0.000271,-0.002820,-0.000569,0.001113,-0.033,0.064,0.000038,0.000003,-0.000610,0.000392,0.000029,0.000692,3331388,4,1,1,0.19,49,44,0.000867,0.000050,45.286,6.325,1,0.001436,-0.001063,0,0,0.998,0,1,rigid_body,0.1327,1,0.00120,0,-0.000217,0.002899,0.022621,0.013880,0.000713,-0.001862,-0.999902,-1.591,-0.079,0.214
2025-10-17T22:02:31.335996,1.0394,-0.000253,0.002847,0.022575,-0.000211,0.002877,0.022632,0.000253,-0.002847,-0.000417,0.001028,-0.024,0.059,0.000035,0.000003,-0.000455,0.000396,0.000030,0.000603,3331389,4,1,1,0.15,50,44,0.000867,0.000050,,8.239,0,0.001284,-0.000978,0,0,0.998,0,1,rigid_body,0.1328,1,0.00121,0,-0.000211,0.002877,0.022632,0.013845,0.000720,-0.001802,-0.999902,-1.587,-0.080,0.208
2025-10-17T22:02:31.346369,1.0498,-0.000251,0.002863,0.022568,-0.000231,0.002887,0.022608,0.000251,-0.002863,-0.000170,0.000857,-0.010,0.049,0.000035,0.000003,-0.000208,0.000398,0.000030,0.000428,3331390,4,1,1,0.21,51,44,0.000867,0.000050,,18.610,0,0.001037,-0.000806,0,0,0.998,0,1,rigid_body,0.1327,1,0.00124,0,-0.000231,0.002887,0.022608,0.013786,0.000730,-0.001714,-0.999903,-1.580,-0.081,0.197
2025-10-17T22:02:31.356853,1.0603,-0.000217,0.002896,0.022612,-0.000213,0.002912,0.022598,0.000217,-0.002896,-0.000439,0.000985,-0.025,0.056,0.000030,0.000003,-0.000473,0.000402,0.000031,0.000551,3331391,4,1,1,0.19,52,48,-0.000098,0.000676,,6.605,0,0.000341,-0.000309,0,0,0.998,0,1,rigid_body,0.1326,1,0.00123,0,-0.000213,0.002912,0.022598,0.013325,0.000591,-0.002031,-0.999909,-1.527,-0.065,0.234
2025-10-17T22:02:31.367227,1.0707,-0.000236,0.002841,0.022636,-0.000276,0.002718,0.022689,0.000236,-0.002841,0.000069,-0.000001,0.004,-0.000,0.000033,0.000003,0.000033,0.000395,0.000031,-0.000427,3331392,4,1,1,0.17,53,51,-0.000170,0.000857,19.928,1.076,1,-0.000239,0.000857,0,0,0.998,0,1,rigid_body,0.1325,1,0.00118,0,-0.000276,0.002718,0.022689,0.014816,0.001760,-0.002430,-0.999886,-1.698,-0.197,0.281
2025-10-17T22:02:31.377688,1.0811,-0.000229,0.002822,0.022674,-0.000207,0.002797,0.022754,0.000229,-0.002822,-0.000039,0.000034,-0.002,0.002,0.000032,0.000003,-0.000074,0.000392,0.000032,-0.000391,3331393,4,1,1,0.27,54,51,-0.000170,0.000857,19.928,11.531,1,-0.000131,0.000823,0,0,0.998,0,1,rigid_body,0.1324,1,0.00114,0,-0.000207,0.002797,0.022754,0.015815,0.000976,-0.001537,-0.999873,-1.813,-0.109,0.178
2025-10-17T22:02:31.388390,1.0918,-0.000236,0.002783,0.022677,-0.000248,0.002713,0.022674,0.000236,-0.002783,0.000093,-0.000184,0.005,-0.011,0.000033,0.000003,0.000056,0.000387,0.000033,-0.000603,3331394,4,1,1,0.42,55,52,-0.000439,0.000985,25.247,6.422,1,-0.000532,0.001169,0,0,0.998,0,1,rigid_body,0.1324,1,0.00117,0,-0.000248,0.002713,0.022674,0.014930,0.001601,-0.002247,-0.999885,-1.711,-0.180,0.260
2025-10-17T22:02:31.398667,1.1021,-0.000324,0.002739,0.022524,-0.000519,0.002669,0.022164,0.000324,-0.002739,0.001097,-0.000348,0.063,-0.020,0.000045,0.000003,0.001048,0.000381,0.000033,-0.000762,3331395,4,1,1,0.19,56,52,-0.000439,0.000985,,1.066,0,-0.001536,0.001333,0,0,0.998,0,1,rigid_body,0.1323,1,0.00094,0,-0.000519,0.002669,0.022164,0.008984,0.000318,0.003431,-0.999954,-1.029,-0.040,-0.393
2025-10-17T22:02:31.409003,1.1124,-0.000389,0.002696,0.022422,-0.000502,0.002649,0.022214,0.000389,-0.002696,0.001245,-0.000408,0.071,-0.023,0.000054,0.000004,0.001188,0.000375,0.000034,-0.000816,3331396,4,1,1,0.18,57,52,-0.000439,0.000985,,11.404,0,-0.001685,0.001392,0,0,0.998,0,1,rigid_body,0.1324,1,0.00091,0,-0.000502,0.002649,0.022214,0.009986,0.000505,0.003392,-0.999944,-1.144,-0.062,-0.388
2025-10-17T22:02:31.419372,1.1228,-0.000356,0.002752,0.022460,-0.000251,0.002883,0.022622,0.000356,-0.002752,0.000140,0.000757,0.008,0.043,0.000050,0.000004,0.000086,0.000382,0.000034,0.000340,3331397,4,1,1,0.22,58,53,0.000069,-0.000001,45.869,6.382,1,-0.000071,-0.000758,0,0,0.998,0,1,rigid_body,0.1325,1,0.00122,0,-0.000251,0.002883,0.022622,0.013931,0.000778,-0.001675,-0.999901,-1.597,-0.086,0.193
2025-10-17T22:02:31.429806,1.1332,-0.000341,0.002790,0.022488,-0.000264,0.002889,0.022636,0.000341,-0.002790,-0.000093,0.001007,-0.005,0.058,0.000047,0.000004,-0.000144,0.000388,0.000035,0.000585,3331398,4,1,1,0.15,59,54,-0.000039,0.000034,51.139,1.177,1,0.000054,-0.000974,0,0,0.998,0,1,rigid_body,0.1326,1,0.00122,0,-0.000264,0.002889,0.022636,0.014093,0.000756,-0.001747,-0.999899,-1.615,-0.084,0.201
2025-10-17T22:02:31.439938,1.1434,-0.000411,0.002758,0.022368,-0.000541,0.002663,0.022153,0.000411,-0.002758,0.000859,0.000256,0.049,0.015,0.000057,0.000004,0.000798,0.000383,0.000035,-0.000162,3331399,4,1,1,0.22,60,54,-0.000039,0.000034,51.139,11.305,1,-0.000897,-0.000223,0,0,0.998,0,1,rigid_body,0.1326,1,0.00094,0,-0.000541,0.002663,0.022153,0.008982,0.000295,0.003537,-0.999953,-1.029,-0.037,-0.405
2025-10-17T22:02:31.450371,1.1538,-0.000435,0.002739,0.022325,-0.000519,0.002671,0.022170,0.000435,-0.002739,0.000664,0.000131,0.038,0.007,0.000061,0.000004,0.000599,0.000381,0.000036,-0.000286,3331400,4,1,1,0.21,61,57,0.001245,-0.000408,,6.112,0,0.000582,-0.000538,0,0,0.998,0,1,rigid_body,0.1327,1,0.00091,0,-0.000519,0.002671,0.022170,0.009428,0.000432,0.003682,-0.999949,-1.080,-0.053,-0.421
2025-10-17T22:02:31.460521,1.1640,-0.000382,0.002764,0.022469,-0.000281,0.002795,0.022758,0.000382,-0.002764,-0.000353,0.000613,-0.020,0.035,0.000053,0.000004,-0.000410,0.000384,0.000036,0.000192,3331401,4,1,1,0.26,62,60,0.000859,0.000256,20.632,0.089,1,0.001211,-0.000356,0,0,0.998,0,1,rigid_body,0.1327,1,0.00115,0,-0.000281,0.002795,0.022758,0.015925,0.000884,-0.001436,-0.999872,-1.825,-0.099,0.166
2025-10-17T22:02:31.471236,1.1747,-0.000371,0.002734,0.022521,-0.000309,0.002700,0.022681,0.000371,-0.002734,-0.000236,0.000142,-0.013,0.008,0.000052,0.000004,-0.000291,0.000380,0.000037,-0.000275,3331402,4,1,1,0.44,63,60,0.000859,0.000256,20.632,10.802,1,0.001094,0.000115,0,0,0.998,0,1,rigid_body,0.1328,1,0.00117,0,-0.000309,0.002700,0.022681,0.014974,0.001928,-0.002284,-0.999883,-1.717,-0.217,0.265
2025-10-17T22:02:31.481498,1.1849,-0.000450,0.002693,0.022403,-0.000596,0.002647,0.022175,0.000450,-0.002693,0.000877,-0.000174,0.050,-0.010,0.000063,0.000004,0.000810,0.000374,0.000038,-0.000586,3331403,4,1,1,0.20,64,61,0.000664,0.000131,25.688,5.569,1,-0.000214,0.000305,0,0,0.998,0,1,rigid_body,0.1328,1,0.00093,0,-0.000596,0.002647,0.022175,0.009405,0.000980,0.004089,-0.999947,-1.077,-0.117,-0.468
2025-10-17T22:02:31.491670,1.1951,-0.000419,0.002751,0.022500,-0.000375,0.002872,0.022644,0.000419,-0.002751,0.000007,0.000889,0.000,0.051,0.000058,0.000004,-0.000056,0.000382,0.000038,0.000468,3331404,4,1,1,0.25,65,61,0.000664,0.000131,25.688,15.738,1,0.000657,-0.000758,0,0,0.998,0,1,rigid_body,0.1328,1,0.00122,0,-0.000375,0.002872,0.022644,0.014714,0.001765,-0.001571,-0.999889,-1.686,-0.200,0.183
2025-10-17T22:02:31.501786,1.2052,-0.000399,0.002798,0.022573,-0.000385,0.002881,0.022641,0.000399,-0.002798,-0.000199,0.001187,-0.011,0.068,0.000055,0.000004,-0.000258,0.000389,0.000039,0.000760,3331405,4,1,1,0.26,66,61,0.000664,0.000131,25.688,25.850,1,0.000862,-0.001057,0,0,0.998,0,1,rigid_body,0.1328,1,0.00121,0,-0.000385,0.002881,0.022641,0.014856,0.001577,-0.001277,-0.999888,-1.703,-0.178,0.149
2025-10-17T22:02:31.512300,1.2157,-0.000410,0.002826,0.022576,-0.000400,0.002888,0.022635,0.000410,-0.002826,0.000084,0.001063,0.005,0.061,0.000057,0.000004,0.000022,0.000393,0.000039,0.000630,3331406,4,1,1,0.24,67,62,-0.000353,0.000613,,5.680,0,-0.000436,-0.000450,0,0,0.998,0,1,rigid_body,0.1328,1,0.00122,0,-0.000400,0.002888,0.022635,0.014898,0.001635,-0.001510,-0.999887,-1.707,-0.185,0.176
2025-10-17T22:02:31.522521,1.2260,-0.000515,0.002920,0.022505,-0.000720,0.003094,0.022376,0.000515,-0.002920,0.001339,0.001820,0.077,0.104,0.000072,0.000005,0.001263,0.000406,0.000040,0.001375,3331407,4,1,1,0.22,68,66,-0.000199,0.001187,20.844,0.052,1,-0.001538,-0.000633,0,0,0.998,0,1,rigid_body,0.1327,1,0.00116,0,-0.000720,0.003094,0.022376,0.009964,0.003424,-0.005527,-0.999929,-1.144,-0.386,0.637
2025-10-17T22:02:31.532657,1.2361,-0.000590,0.002888,0.022433,-0.000781,0.002737,0.022180,0.000590,-0.002888,0.001503,0.000599,0.086,0.034,0.000082,0.000005,0.001417,0.000401,0.000041,0.000157,3331408,4,1,1,0.23,69,67,0.000084,0.001063,19.852,0.665,1,-0.001420,0.000463,0,0,0.998,0,1,rigid_body,0.1327,1,0.00095,0,-0.000781,0.002737,0.022180,0.010336,0.002921,0.003357,-0.999937,-1.183,-0.339,-0.381
2025-10-17T22:02:31.543140,1.2466,-0.000687,0.002888,0.022399,-0.000840,0.002883,0.022384,0.000687,-0.002888,0.001793,0.000504,0.103,0.029,0.000095,0.000005,0.001692,0.000401,0.000041,0.000061,3331409,4,1,1,0.23,70,67,0.000084,0.001063,19.852,11.148,1,-0.001709,0.000559,0,0,0.998,0,1,rigid_body,0.1327,1,0.00110,0,-0.000840,0.002883,0.022384,0.011240,0.004993,-0.006477,-0.999904,-1.292,-0.564,0.749
2025-10-17T22:02:31.553820,1.2573,-0.000782,0.002882,0.022364,-0.000906,0.002868,0.022353,0.000782,-0.002882,0.001884,0.000403,0.108,0.023,0.000109,0.000005,0.001771,0.000401,0.000042,-0.000040,3331410,4,1,1,0.31,71,69,0.001503,0.000599,21.207,0.106,1,-0.000381,0.000197,0,0,0.998,0,1,rigid_body,0.1327,1,0.00110,0,-0.000906,0.002868,0.022353,0.011652,0.005460,-0.006889,-0.999894,-1.340,-0.616,0.797
2025-10-17T22:02:31.564237,1.2677,-0.000873,0.002876,0.022334,-0.000968,0.002863,0.022347,0.000873,-0.002876,0.001902,0.000351,0.109,0.020,0.000121,0.000005,0.001775,0.000400,0.000042,-0.000091,3331411,4,1,1,0.23,72,69,0.001503,0.000599,21.207,10.521,1,-0.000398,0.000249,0,0,0.998,0,1,rigid_body,0.1327,1,0.00109,0,-0.000968,0.002863,0.022347,0.011847,0.005833,-0.007023,-0.999888,-1.362,-0.659,0.813
2025-10-17T22:02:31.574238,1.2777,-0.001057,0.002832,0.022120,-0.001424,0.002798,0.021655,0.001057,-0.002832,0.003108,-0.000129,0.178,-0.007,0.000147,0.000005,0.002955,0.000394,0.000043,-0.000566,3331412,4,1,1,0.18,73,70,0.001793,0.000504,26.631,4.606,1,-0.001315,0.000633,0,0,0.999,0,1,rigid_body,0.1326,1,0.00063,0,-0.001424,0.002798,0.021655,0.003790,0.004428,-0.001863,-0.999981,-0.435,-0.507,0.215
2025-10-17T22:02:31.585028,1.2885,-0.001065,0.002907,0.022185,-0.001002,0.003047,0.022347,0.001065,-0.002907,0.001425,0.001124,0.082,0.064,0.000148,0.000006,0.001272,0.000404,0.000044,0.000676,3331414,4,1,1,0.80,74,70,0.001793,0.000504,26.631,15.395,1,0.000367,-0.000620,0,0,0.998,0,1,rigid_body,0.1328,1,0.00111,0,-0.001018,0.003024,0.022325,0.011579,0.004883,-0.006404,-0.999901,-1.330,-0.551,0.740
2025-10-17T22:02:31.595405,1.2988,-0.001075,0.002981,0.022230,-0.001038,0.003037,0.022313,0.001075,-0.002981,0.000778,0.001548,0.045,0.089,0.000149,0.000006,0.000622,0.000414,0.000044,0.001089,3331415,4,1,1,0.19,75,71,0.001884,0.000403,31.483,10.288,1,0.001107,-0.001145,0,0,0.998,0,1,rigid_body,0.1328,1,0.00110,0,-0.001038,0.003037,0.022313,0.011750,0.005311,-0.006175,-0.999898,-1.350,-0.600,0.715
2025-10-17T22:02:31.605785,1.3092,-0.001223,0.002923,0.022036,-0.001522,0.002760,0.021637,0.001223,-0.002923,0.002178,0.000202,0.125,0.012,0.000170,0.000006,0.002002,0.000406,0.000045,-0.000249,3331416,4,1,1,0.22,76,72,0.001902,0.000351,,5.400,0,-0.000276,0.000149,0,0,0.999,0,1,rigid_body,0.1327,1,0.00060,0,-0.001522,0.002760,0.021637,0.004733,0.005579,-0.002035,-0.999971,-0.544,-0.638,0.236
2025-10-17T22:02:31.616064,1.3195,-0.001301,0.002881,0.021950,-0.001533,0.002751,0.021650,0.001301,-0.002881,0.001920,-0.000157,0.110,-0.009,0.000181,0.000006,0.001733,0.000400,0.000045,-0.000603,3331417,4,1,1,0.25,77,75,0.000778,0.001548,20.742,0.054,1,-0.001142,0.001705,0,0,0.999,0,1,rigid_body,0.1328,1,0.00060,0,-0.001533,0.002751,0.021650,0.004851,0.005755,-0.001930,-0.999970,-0.557,-0.658,0.224
2025-10-17T22:02:31.626475,1.3299,-0.001265,0.002894,0.022027,-0.001098,0.002970,0.022311,0.001265,-0.002894,0.000449,0.000357,0.026,0.020,0.000176,0.000007,0.000267,0.000402,0.000046,-0.000092,3331418,4,1,1,0.16,78,75,0.000778,0.001548,20.742,10.466,1,0.000328,0.001191,0,0,0.998,0,1,rigid_body,0.1329,1,0.00107,0,-0.001098,0.002970,0.022311,0.012319,0.006057,-0.006327,-0.999886,-1.416,-0.685,0.734
2025-10-17T22:02:31.636498,1.3399,-0.001250,0.002857,0.022090,-0.001146,0.002814,0.022316,0.001250,-0.002857,0.000104,-0.000033,0.006,-0.002,0.000174,0.000007,-0.000076,0.000397,0.000047,-0.000477,3331419,4,1,1,0.14,79,77,0.001920,-0.000157,15.536,5.033,1,0.001816,-0.000125,0,0,0.998,0,1,rigid_body,0.1329,1,0.00107,0,-0.001146,0.002814,0.022316,0.012432,0.007533,-0.006687,-0.999872,-1.431,-0.854,0.777
2025-10-17T22:02:31.646610,1.3501,-0.001367,0.002800,0.021933,-0.001567,0.002723,0.021647,0.001367,-0.002800,0.001594,-0.000455,0.091,-0.026,0.000190,0.000007,0.001397,0.000389,0.000047,-0.000891,3331420,4,1,1,0.21,80,77,0.001920,-0.000157,15.536,15.144,1,0.000326,0.000297,0,0,0.999,0,1,rigid_body,0.1330,1,0.00060,0,-0.001567,0.002723,0.021647,0.004940,0.006639,-0.002139,-0.999963,-0.568,-0.760,0.249
2025-10-17T22:02:31.657121,1.3606,-0.001283,0.002845,0.022075,-0.001141,0.002935,0.022306,0.001283,-0.002845,-0.000231,0.000615,-0.013,0.035,0.000178,0.000007,-0.000417,0.000395,0.000048,0.000172,3331421,4,1,1,0.20,81,78,0.000449,0.000357,20.433,10.326,1,0.000681,-0.000259,0,0,0.998,0,1,rigid_body,0.1331,1,0.00108,0,-0.001141,0.002935,0.022306,0.012425,0.006943,-0.006606,-0.999877,-1.429,-0.786,0.767
2025-10-17T22:02:31.667538,1.3710,-0.001332,0.002790,0.022002,-0.001513,0.002640,0.021718,0.001332,-0.002790,0.000600,-0.000145,0.034,-0.008,0.000185,0.000008,0.000408,0.000388,0.000048,-0.000581,3331422,4,1,1,0.18,82,78,0.000449,0.000357,20.433,20.742,1,-0.000151,0.000501,0,0,0.999,0,1,rigid_body,0.1330,1,0.00064,0,-0.001513,0.002640,0.021718,0.006037,0.007499,-0.002238,-0.999951,-0.694,-0.858,0.262
2025-10-17T22:02:31.678321,1.3818,-0.001290,0.002810,0.022067,-0.001128,0.002905,0.022301,0.001290,-0.002810,-0.000135,0.000431,-0.008,0.025,0.000179,0.000008,-0.000322,0.000391,0.000049,-0.000008,3331423,4,1,1,0.22,83,78,0.000449,0.000357,,0.075,0,0.000584,-0.000074,0,0,0.998,0,1,rigid_body,0.1330,1,0.00108,0,-0.001128,0.002905,0.022301,0.012388,0.007274,-0.006094,-0.999878,-1.425,-0.825,0.709
2025-10-17T22:02:31.688553,1.3920,-0.001387,0.002757,0.021935,-0.001564,0.002641,0.021714,0.001387,-0.002757,0.001257,-0.000209,0.072,-0.012,0.000193,0.000008,0.001056,0.000383,0.000049,-0.000641,3331424,4,1,1,0.35,84,78,0.000449,0.000357,,10.309,0,-0.000808,0.000565,0,0,0.999,0,1,rigid_body,0.1328,1,0.00061,0,-0.001564,0.002641,0.021714,0.006038,0.007270,-0.002561,-0.999952,-0.694,-0.831,0.299
2025-10-17T22:02:31.698980,1.4024,-0.001427,0.002721,0.021872,-0.001567,0.002633,0.021649,0.001427,-0.002721,0.001090,-0.000241,0.062,-0.014,0.000198,0.000008,0.000883,0.000378,0.000050,-0.000669,3331425,4,1,1,0.23,85,78,0.000449,0.000357,,5.669,0,-0.000641,0.000598,0,0,0.999,0,1,rigid_body,0.1328,1,0.00059,0,-0.001567,0.002633,0.021649,0.005298,0.007067,-0.002047,-0.999959,-0.609,-0.809,0.239
2025-10-17T22:02:31.708978,1.4124,-0.001374,0.002694,0.021972,-0.001173,0.002696,0.022320,0.001374,-0.002694,-0.000095,-0.000170,-0.005,-0.010,0.000191,0.000009,-0.000295,0.000375,0.000051,-0.000595,3331426,4,1,1,0.15,86,78,0.000449,0.000357,,0.055,0,0.000545,0.000527,0,0,0.998,0,1,rigid_body,0.1328,1,0.00107,0,-0.001173,0.002696,0.022320,0.012742,0.007886,-0.006830,-0.999864,-1.466,-0.894,0.794
2025-10-17T22:02:31.719545,1.4230,-0.001309,0.002699,0.022110,-0.001205,0.002695,0.022343,0.001309,-0.002699,-0.000683,0.000247,-0.039,0.014,0.000182,0.000009,-0.000874,0.000375,0.000051,-0.000179,3331427,4,1,1,0.24,87,78,0.000449,0.000357,,10.613,0,0.001133,0.000109,0,0,0.998,0,1,rigid_body,0.1328,1,0.00107,0,-0.001205,0.002695,0.022343,0.013048,0.007568,-0.007262,-0.999860,-1.502,-0.856,0.843
2025-10-17T22:02:31.729612,1.4330,-0.001290,0.002666,0.022169,-0.001196,0.002650,0.022357,0.001290,-0.002666,-0.000391,-0.000058,-0.022,-0.003,0.000179,0.000009,-0.000580,0.000371,0.000052,-0.000481,3331428,4,1,1,0.25,88,78,0.000449,0.000357,,5.325,0,0.000840,0.000415,0,0,0.998,0,1,rigid_body,0.1329,1,0.00105,0,-0.001196,0.002650,0.022357,0.013448,0.007662,-0.006876,-0.999857,-1.547,-0.867,0.800
2025-10-17T22:02:31.740145,1.4436,-0.001355,0.002610,0.022062,-0.001577,0.002479,0.021693,0.001355,-0.002610,0.000714,-0.000423,0.041,-0.024,0.000188,0.000010,0.000516,0.000363,0.000052,-0.000838,3331429,4,1,1,0.23,89,78,0.000449,0.000357,,0.088,0,-0.000264,0.000780,0,0,0.999,0,1,rigid_body,0.1328,1,0.00059,0,-0.001577,0.002479,0.021693,0.005660,0.007105,-0.002002,-0.999957,-0.650,-0.813,0.234
2025-10-17T22:02:31.750487,1.4539,-0.001270,0.002654,0.022176,-0.001143,0.002758,0.022311,0.001270,-0.002654,-0.000602,0.000604,-0.034,0.035,0.000177,0.000010,-0.000788,0.000369,0.000053,0.000182,3331430,4,1,1,0.17,90,78,0.000449,0.000357,,10.437,0,0.001052,-0.000247,0,0,0.998,0,1,rigid_body,0.1328,1,0.00111,0,-0.001143,0.002758,0.022311,0.012355,0.006761,-0.006521,-0.999880,-1.421,-0.765,0.757
2025-10-17T22:02:31.760517,1.4640,-0.001248,0.002674,0.022211,-0.001170,0.002729,0.022330,0.001248,-0.002674,-0.000403,0.000735,-0.023,0.042,0.000173,0.000010,-0.000587,0.000372,0.000053,0.000311,3331431,4,1,1,0.17,91,89,0.000714,-0.000423,15.890,4.613,1,0.001117,-0.001159,0,0,0.998,0,1,rigid_body,0.1328,1,0.00109,0,-0.001170,0.002729,0.022330,0.012788,0.006743,-0.006066,-0.999877,-1.470,-0.764,0.705
2025-10-17T22:02:31.770698,1.4741,-0.001246,0.002680,0.022230,-0.001230,0.002699,0.022310,0.001246,-0.002680,-0.000072,0.000624,-0.004,0.036,0.000173,0.000010,-0.000255,0.000372,0.000054,0.000197,3331432,4,1,1,0.26,92,89,0.000714,-0.000423,15.890,14.790,1,0.000785,-0.001047,0,0,0.998,0,1,rigid_body,0.1328,1,0.00106,0,-0.001230,0.002699,0.022310,0.012402,0.006475,-0.006063,-0.999884,-1.426,-0.733,0.704
2025-10-17T22:02:31.781158,1.4846,-0.001385,0.002595,0.022048,-0.001680,0.002398,0.021680,0.001385,-0.002595,0.001726,-0.000494,0.099,-0.028,0.000193,0.000011,0.001523,0.000361,0.000054,-0.000909,3331433,4,1,1,0.24,93,90,-0.000602,0.000604,21.445,9.329,1,-0.002328,0.001098,0,0,0.999,0,1,rigid_body,0.1327,1,0.00061,0,-0.001680,0.002398,0.021680,0.005870,0.006809,-0.002388,-0.999957,-0.675,-0.779,0.278
2025-10-17T22:02:31.791658,1.4951,-0.001477,0.002524,0.021980,-0.001735,0.002333,0.021727,0.001477,-0.002524,0.001895,-0.000785,0.109,-0.045,0.000205,0.000011,0.001679,0.000351,0.000055,-0.001191,3331434,4,1,1,0.26,94,91,-0.000403,0.000735,26.608,4.635,1,-0.002298,0.001520,0,0,0.999,0,1,rigid_body,0.1328,1,0.00059,0,-0.001735,0.002333,0.021727,0.006747,0.006763,-0.003054,-0.999950,-0.776,-0.773,0.355
2025-10-17T22:02:31.802151,1.5056,-0.001485,0.002467,0.022060,-0.001409,0.002406,0.022332,0.001485,-0.002467,0.000990,-0.000747,0.057,-0.043,0.000206,0.000011,0.000772,0.000343,0.000055,-0.001145,3331435,4,1,1,0.22,95,91,-0.000403,0.000735,26.608,15.136,1,-0.001393,0.001482,0,0,0.998,0,1,rigid_body,0.1329,1,0.00104,0,-0.001409,0.002406,0.022332,0.014041,0.007315,-0.007458,-0.999847,-1.615,-0.826,0.866
2025-10-17T22:02:31.812617,1.5160,-0.001501,0.002411,0.022144,-0.001445,0.002361,0.022409,0.001501,-0.002411,0.000712,-0.000726,0.041,-0.042,0.000209,0.000012,0.000492,0.000335,0.000056,-0.001117,3331436,4,1,1,0.27,96,93,0.001726,-0.000494,21.364,10.244,1,0.001014,0.000232,0,0,0.998,0,1,rigid_body,0.1329,1,0.00102,0,-0.001445,0.002361,0.022409,0.014546,0.006428,-0.006505,-0.999852,-1.672,-0.726,0.756
2025-10-17T22:02:31.822643,1.5261,-0.001502,0.002386,0.022187,-0.001428,0.002416,0.022329,0.001502,-0.002386,0.000435,-0.000351,0.025,-0.020,0.000209,0.000012,0.000214,0.000332,0.000056,-0.000739,3331437,4,1,1,0.22,97,95,0.000990,-0.000747,15.895,4.739,1,0.000555,-0.000396,0,0,0.998,0,1,rigid_body,0.1330,1,0.00108,0,-0.001428,0.002416,0.022329,0.013238,0.006540,-0.007677,-0.999862,-1.523,-0.738,0.890
2025-10-17T22:02:31.833179,1.5366,-0.001481,0.002353,0.022276,-0.001485,0.002280,0.022328,0.001481,-0.002353,0.000057,-0.000308,0.003,-0.018,0.000206,0.000012,-0.000161,0.000327,0.000057,-0.000692,3331438,4,1,1,0.27,98,95,0.000990,-0.000747,15.895,15.271,1,0.000933,-0.000439,0,0,0.998,0,1,rigid_body,0.1329,1,0.00103,0,-0.001485,0.002280,0.022328,0.013461,0.006591,-0.007108,-0.999862,-1.548,-0.744,0.825
2025-10-17T22:02:31.843716,1.5471,-0.001468,0.002309,0.022343,-0.001510,0.002208,0.022337,0.001468,-0.002309,-0.000006,-0.000401,-0.000,-0.023,0.000204,0.000013,-0.000222,0.000321,0.000057,-0.000780,3331439,4,1,1,0.29,99,96,0.000712,-0.000726,20.991,10.279,1,0.000717,-0.000325,0,0,0.998,0,1,rigid_body,0.1328,1,0.00103,0,-0.001510,0.002208,0.022337,0.013408,0.006665,-0.007041,-0.999863,-1.542,-0.753,0.817
2025-10-17T22:02:31.853722,1.5572,-0.001481,0.002174,0.022359,-0.001494,0.001901,0.022390,0.001481,-0.002174,0.000294,-0.001596,0.017,-0.091,0.000206,0.000013,0.000075,0.000302,0.000058,-0.001956,3331440,4,1,1,0.24,100,97,0.000435,-0.000351,25.430,5.758,1,0.000141,0.001245,0,0,0.998,0,1,rigid_body,0.1327,1,0.00118,0,-0.001494,0.001901,0.022390,0.014031,0.007440,-0.005912,-0.999856,-1.613,-0.843,0.689
2025-10-17T22:02:31.864225,1.5677,-0.001508,0.002043,0.022358,-0.001556,0.001803,0.022371,0.001508,-0.002043,0.000563,-0.001979,0.032,-0.113,0.000210,0.000013,0.000340,0.000284,0.000058,-0.002321,3331441,4,1,1,0.28,101,97,0.000435,-0.000351,25.430,16.259,1,-0.000128,0.001628,0,0,0.998,0,1,rigid_body,0.1327,1,0.00119,0,-0.001556,0.001803,0.022371,0.013740,0.006925,-0.006228,-0.999862,-1.580,-0.784,0.725
2025-10-17T22:02:31.874717,1.5782,-0.001538,0.001909,0.022373,-0.001583,0.001717,0.022399,0.001538,-0.001909,0.000719,-0.002164,0.041,-0.124,0.000214,0.000013,0.000491,0.000265,0.000059,-0.002488,3331442,4,1,1,0.26,102,98,0.000057,-0.000308,31.505,10.216,1,-0.000661,0.001856,0,0,0.998,0,1,rigid_body,0.1327,1,0.00119,0,-0.001583,0.001717,0.022399,0.014026,0.006630,-0.006673,-0.999857,-1.612,-0.749,0.775
2025-10-17T22:02:31.885338,1.5888,-0.001631,0.001540,0.022392,-0.001707,0.001276,0.022384,0.001631,-0.001540,0.001496,-0.004935,0.086,-0.283,0.000227,0.000014,0.001255,0.000214,0.000059,-0.005208,3331444,4,1,1,0.16,103,100,0.000294,-0.001596,,5.351,0,-0.001202,0.003339,0,0,0.998,0,1,rigid_body,0.1327,1,0.00113,0,-0.001707,0.001276,0.022384,0.016004,0.006341,-0.006953,-0.999828,-1.839,-0.714,0.808
2025-10-17T22:02:31.895479,1.5989,-0.001699,0.001383,0.022417,-0.001810,0.001137,0.022474,0.001699,-0.001383,0.001574,-0.003737,0.090,-0.214,0.000236,0.000014,0.001324,0.000192,0.000059,-0.003989,3331445,4,1,1,0.22,104,101,0.000563,-0.001979,31.350,0.079,1,-0.001011,0.001758,0,0,0.998,0,1,rigid_body,0.1328,1,0.00116,0,-0.001810,0.001137,0.022474,0.014189,0.006232,-0.005435,-0.999865,-1.630,-0.705,0.633
2025-10-17T22:02:31.905915,1.6094,-0.001895,0.001168,0.022295,-0.002292,0.000811,0.022010,0.001895,-0.001168,0.003104,-0.003881,0.178,-0.222,0.000263,0.000015,0.002826,0.000162,0.000060,-0.004103,3331446,4,1,1,0.17,105,101,0.000563,-0.001979,31.350,10.519,1,-0.002541,0.001902,0,0,0.998,0,1,rigid_body,0.1328,1,0.00084,0,-0.002292,0.000811,0.022010,-0.702464,0.027872,-0.711146,-0.006323,-69.441,-88.118,-113.330
2025-10-17T22:02:31.916315,1.6198,-0.001850,0.001031,0.022302,-0.001660,0.000884,0.022347,0.001850,-0.001031,0.000872,-0.003046,0.050,-0.175,0.000257,0.000015,0.000600,0.000143,0.000060,-0.003249,3331447,4,1,1,0.15,106,103,0.001496,-0.004935,25.571,5.519,1,0.000624,-0.001889,0,0,0.998,0,1,rigid_body,0.1329,1,0.00116,0,-0.001660,0.000884,0.022347,0.016417,0.002547,-0.007735,-0.999832,-1.884,-0.277,0.891
2025-10-17T22:02:31.926706,1.6301,-0.001822,0.000895,0.022311,-0.001710,0.000701,0.022363,0.001822,-0.000895,0.000175,-0.002723,0.010,-0.156,0.000253,0.000015,-0.000093,0.000124,0.000060,-0.002907,3331448,4,1,1,0.19,107,104,0.001574,-0.003737,,0.066,0,0.001399,-0.001014,0,0,0.998,0,1,rigid_body,0.1330,1,0.00115,0,-0.001710,0.000701,0.022363,0.016688,0.002056,-0.007995,-0.999827,-1.914,-0.220,0.920
2025-10-17T22:02:31.937343,1.6408,-0.001855,0.000733,0.022384,-0.001897,0.000479,0.022566,0.001855,-0.000733,0.000625,-0.002889,0.036,-0.166,0.000258,0.000016,0.000351,0.000102,0.000060,-0.003051,3331449,4,1,1,0.27,108,104,0.001574,-0.003737,,10.696,0,0.000949,-0.000848,0,0,0.998,0,1,rigid_body,0.1330,1,0.00113,0,-0.001897,0.000479,0.022566,0.012628,0.001615,-0.004339,-0.999910,-1.448,-0.179,0.500
2025-10-17T22:02:31.947480,1.6509,-0.002017,0.000544,0.022203,-0.002365,0.000241,0.021827,0.002017,-0.000544,0.002387,-0.003349,0.137,-0.192,0.000280,0.000016,0.002091,0.000076,0.000060,-0.003484,3331450,4,1,1,0.23,109,106,0.000872,-0.003046,25.862,5.397,1,-0.001516,0.000303,0,0,0.999,0,1,rigid_body,0.1330,1,0.00068,0,-0.002365,0.000241,0.021827,0.003525,0.001110,-0.000830,-0.999993,-0.404,-0.127,0.096
2025-10-17T22:02:31.957979,1.6614,-0.002102,0.000370,0.022105,-0.002368,0.000058,0.021832,0.002102,-0.000370,0.002128,-0.003320,0.122,-0.190,0.000292,0.000017,0.001819,0.000051,0.000060,-0.003431,3331451,4,1,1,0.26,110,107,0.000175,-0.002723,31.308,0.089,1,-0.001953,0.000597,0,0,0.999,0,1,rigid_body,0.1331,1,0.00066,0,-0.002368,0.000058,0.021832,0.003434,0.000682,-0.000276,-0.999994,-0.394,-0.078,0.032
2025-10-17T22:02:31.968409,1.6718,-0.002100,0.000255,0.022200,-0.001969,0.000145,0.022481,0.002100,-0.000255,0.001013,-0.002630,0.058,-0.151,0.000292,0.000017,0.000704,0.000035,0.000060,-0.002726,3331452,4,1,1,0.25,111,107,0.000175,-0.002723,31.308,10.517,1,-0.000837,-0.000093,0,0,0.998,0,1,rigid_body,0.1332,1,0.00108,0,-0.001969,0.000145,0.022481,0.010301,-0.000220,-0.004328,-0.999938,-1.180,0.030,0.496
2025-10-17T22:02:31.978414,1.6819,-0.002097,0.000142,0.022278,-0.001979,0.000019,0.022497,0.002097,-0.000142,0.000557,-0.002380,0.032,-0.136,0.000291,0.000017,0.000248,0.000020,0.000060,-0.002460,3331453,4,1,1,0.17,112,108,0.000625,-0.002889,,5.123,0,0.000068,-0.000509,0,0,0.998,0,1,rigid_body,0.1333,1,0.00107,0,-0.001979,0.000019,0.022497,0.010537,-0.000798,-0.004528,-0.999934,-1.207,0.097,0.518
2025-10-17T22:02:31.988932,1.6924,-0.002184,-0.000053,0.022133,-0.002322,-0.000389,0.021894,0.002184,0.000053,0.001443,-0.003202,0.083,-0.183,0.000304,0.000018,0.001122,-0.000007,0.000060,-0.003255,3331454,4,1,1,0.20,113,109,0.002387,-0.003349,41.500,0.112,1,0.000944,-0.000147,0,0,0.999,0,1,rigid_body,0.1333,1,0.00069,0,-0.002322,-0.000389,0.021894,0.003188,-0.001372,-0.000547,-0.999994,-0.365,0.157,0.062
2025-10-17T22:02:31.999364,1.7028,-0.002090,-0.000172,0.022282,-0.001931,-0.000353,0.022527,0.002090,0.000172,-0.000359,-0.002672,-0.021,-0.153,0.000290,0.000018,-0.000668,-0.000024,0.000060,-0.002709,3331455,4,1,1,0.25,114,109,0.002387,-0.003349,41.500,10.534,1,0.002746,-0.000676,0,0,0.998,0,1,rigid_body,0.1333,1,0.00109,0,-0.001931,-0.000353,0.022527,0.010764,-0.002049,-0.005080,-0.999927,-1.232,0.241,0.580
2025-10-17T22:02:32.009436,1.7129,-0.002013,-0.000306,0.022399,-0.001921,-0.000539,0.022530,0.002013,0.000306,-0.000896,-0.002684,-0.051,-0.154,0.000280,0.000019,-0.001194,-0.000043,0.000060,-0.002702,3331456,4,1,1,0.18,115,112,0.000557,-0.002380,,5.085,0,0.001452,0.000304,0,0,0.998,0,1,rigid_body,0.1333,1,0.00109,0,-0.001921,-0.000539,0.022530,0.011404,-0.002794,-0.005033,-0.999918,-1.305,0.327,0.573
2025-10-17T22:02:32.019529,1.7230,-0.001962,-0.000497,0.022454,-0.001837,-0.000791,0.022598,0.001962,0.000497,-0.000800,-0.003405,-0.046,-0.195,0.000273,0.000019,-0.001092,-0.000069,0.000060,-0.003396,3331457,4,1,1,0.20,116,112,0.000557,-0.002380,,15.174,0,0.001357,0.001025,0,0,0.998,0,1,rigid_body,0.1333,1,0.00106,0,-0.001837,-0.000791,0.022598,0.012397,-0.004293,-0.005339,-0.999900,-1.418,0.499,0.606
2025-10-17T22:02:32.029974,1.7334,-0.001917,-0.000704,0.022506,-0.001822,-0.001018,0.022634,0.001917,0.000704,-0.000678,-0.003827,-0.039,-0.219,0.000267,0.000019,-0.000964,-0.000098,0.000060,-0.003789,3331458,4,1,1,0.22,117,112,0.000557,-0.002380,,10.213,0,0.001235,0.001447,0,0,0.998,0,1,rigid_body,0.1333,1,0.00109,0,-0.001822,-0.001018,0.022634,0.012589,-0.004218,-0.006686,-0.999890,-1.439,0.493,0.760
2025-10-17T22:02:32.040044,1.7435,-0.002018,-0.000996,0.022397,-0.002357,-0.001555,0.021981,0.002018,0.000996,0.001133,-0.005142,0.065,-0.295,0.000280,0.000020,0.000832,-0.000138,0.000060,-0.005063,3331459,4,1,1,0.22,118,114,-0.000359,-0.002672,36.156,4.698,1,-0.001491,0.002469,0,0,0.999,0,1,rigid_body,0.1333,1,0.00064,0,-0.002357,-0.001555,0.021981,0.005146,-0.004531,-0.004131,-0.999968,-0.588,0.522,0.471
2025-10-17T22:02:32.050441,1.7539,-0.001972,-0.001191,0.022517,-0.001847,-0.001442,0.022822,0.001972,0.001191,0.000095,-0.004431,0.005,-0.254,0.000274,0.000020,-0.000200,-0.000166,0.000060,-0.004325,3331460,4,1,1,0.21,119,116,-0.000800,-0.003405,,3.945,0,-0.000895,0.001027,0,0,0.998,0,1,rigid_body,0.1334,1,0.00109,0,-0.001847,-0.001442,0.022822,0.015624,-0.005865,-0.006030,-0.999843,-1.786,0.683,0.680
2025-10-17T22:02:32.060954,1.7644,-0.001844,-0.001545,0.022675,-0.001544,-0.002147,0.023029,0.001844,0.001545,-0.001305,-0.006038,-0.075,-0.346,0.000256,0.000021,-0.001583,-0.000215,0.000059,-0.005882,3331461,4,1,1,0.29,120,116,-0.000800,-0.003405,,14.457,0,0.000505,0.002633,0,0,0.998,0,1,rigid_body,0.1334,1,0.00121,0,-0.001544,-0.002147,0.023029,0.019245,-0.005616,-0.003102,-0.999794,-2.203,0.650,0.343
2025-10-17T22:02:32.071488,1.7749,-0.001743,-0.001874,0.022823,-0.001515,-0.002389,0.023132,0.001743,0.001874,-0.001549,-0.006376,-0.089,-0.365,0.000242,0.000021,-0.001812,-0.000260,0.000059,-0.006174,3331462,4,1,1,0.30,121,119,0.000095,-0.004431,16.029,5.143,1,0.001644,0.001944,0,0,0.998,0,1,rigid_body,0.1335,1,0.00120,0,-0.001515,-0.002389,0.023132,0.019256,-0.006052,-0.003572,-0.999790,-2.204,0.701,0.396
2025-10-17T22:02:32.082114,1.7855,-0.001653,-0.002182,0.022961,-0.001474,-0.002624,0.023213,0.001653,0.002182,-0.001517,-0.006279,-0.087,-0.360,0.000230,0.000021,-0.001768,-0.000303,0.000058,-0.006034,3331463,4,1,1,0.35,122,120,-0.001305,-0.006038,21.261,0.099,1,0.000211,0.000241,0,0,0.998,0,1,rigid_body,0.1337,1,0.00122,0,-0.001474,-0.002624,0.023213,0.018163,-0.006670,-0.005065,-0.999800,-2.078,0.775,0.566
2025-10-17T22:02:32.092571,1.7960,-0.001601,-0.002442,0.023104,-0.001688,-0.002839,0.023142,0.001601,0.002442,-0.001062,-0.005706,-0.061,-0.327,0.000223,0.000022,-0.001306,-0.000339,0.000058,-0.005424,3331464,4,1,1,0.26,123,120,-0.001305,-0.006038,21.261,10.556,1,-0.000244,-0.000332,0,0,0.998,0,1,rigid_body,0.1337,1,0.00107,0,-0.001688,-0.002839,0.023142,0.015201,-0.006691,-0.008155,-0.999829,-1.736,0.781,0.923
2025-10-17T22:02:32.102994,1.8064,-0.001629,-0.002742,0.023239,-0.001763,-0.003123,0.023459,0.001629,0.002742,0.000058,-0.005993,0.003,-0.343,0.000226,0.000022,-0.000191,-0.000381,0.000057,-0.005670,3331465,4,1,1,0.17,124,122,-0.001517,-0.006279,14.930,6.136,1,-0.001575,-0.000286,0,0,0.998,0,1,rigid_body,0.1337,1,0.00109,0,-0.001763,-0.003123,0.023459,0.013108,-0.006487,-0.007221,-0.999867,-1.497,0.754,0.818
2025-10-17T22:02:32.113513,1.8170,-0.001702,-0.003035,0.023424,-0.001838,-0.003518,0.023776,0.001702,0.003035,0.001024,-0.006052,0.059,-0.347,0.000237,0.000022,0.000765,-0.000422,0.000057,-0.005687,3331466,4,1,1,0.19,125,122,-0.001517,-0.006279,14.930,16.654,1,-0.002541,-0.000227,0,0,0.998,0,1,rigid_body,0.1337,1,0.00113,0,-0.001838,-0.003518,0.023776,0.012377,-0.005667,-0.006251,-0.999888,-1.414,0.658,0.708
2025-10-17T22:02:32.124167,1.8276,-0.001730,-0.003418,0.023673,-0.001740,-0.004086,0.024141,0.001730,0.003418,0.000899,-0.007139,0.052,-0.409,0.000240,0.000023,0.000636,-0.000475,0.000056,-0.006719,3331467,4,1,1,0.30,126,122,-0.001517,-0.006279,14.930,27.304,1,-0.002416,0.000860,0,0,0.997,0,1,rigid_body,0.1337,1,0.00131,0,-0.001740,-0.004086,0.024141,0.016249,-0.004302,-0.004791,-0.999847,-1.860,0.502,0.541
2025-10-17T22:02:32.135071,1.8385,-0.001756,-0.003839,0.023927,-0.001741,-0.004548,0.024361,0.001756,0.003839,0.000827,-0.008072,0.047,-0.463,0.000244,0.000023,0.000560,-0.000534,0.000055,-0.007594,3331469,4,1,1,0.69,127,124,0.000058,-0.005993,,7.161,0,-0.000769,0.002079,0,0,0.998,0,1,rigid_body,0.1339,1,0.00124,0,-0.001920,-0.004973,0.024589,-0.709582,0.011805,-0.704465,-0.009108,-153.059,-89.531,-28.636
2025-10-17T22:02:32.145020,1.8485,-0.001867,-0.004725,0.024460,-0.001974,-0.005386,0.024823,0.001867,0.004725,0.001801,-0.013961,0.103,-0.800,0.000260,0.000024,0.001518,-0.000657,0.000054,-0.013359,3331470,4,1,1,0.14,128,125,0.001024,-0.006052,30.051,1.578,1,-0.000777,0.007909,0,0,0.998,0,1,rigid_body,0.1342,1,0.00110,0,-0.001974,-0.005386,0.024823,0.018738,-0.007073,-0.008515,-0.999763,-2.141,0.829,0.960
2025-10-17T22:02:32.155288,1.8587,-0.001914,-0.005169,0.024746,-0.002011,-0.005810,0.025184,0.001914,0.005169,0.001457,-0.011294,0.084,-0.647,0.000266,0.000024,0.001167,-0.000718,0.000053,-0.010628,3331471,4,1,1,0.13,129,125,0.001024,-0.006052,30.051,11.842,1,-0.000433,0.005241,0,0,0.998,0,1,rigid_body,0.1343,1,0.00106,0,-0.002011,-0.005810,0.025184,0.019362,-0.006618,-0.009853,-0.999742,-2.211,0.780,1.114
2025-10-17T22:02:32.165833,1.8693,-0.001993,-0.005625,0.025181,-0.002119,-0.006331,0.025975,0.001993,0.005625,0.001688,-0.010290,0.097,-0.590,0.000277,0.000024,0.001387,-0.000782,0.000052,-0.009560,3331472,4,1,1,0.16,130,127,0.000827,-0.008072,24.339,7.045,1,-0.000861,0.002218,0,0,0.998,0,1,rigid_body,0.1344,1,0.00118,0,-0.002119,-0.006331,0.025975,0.017815,-0.006250,-0.007293,-0.999795,-2.036,0.731,0.823
2025-10-17T22:02:32.176325,1.8798,-0.002088,-0.006079,0.025613,-0.002227,-0.006780,0.026341,0.002088,0.006079,0.001975,-0.009915,0.113,-0.568,0.000290,0.000025,0.001660,-0.000845,0.000051,-0.009121,3331473,4,1,1,0.15,131,128,0.001801,-0.013961,,2.109,0,-0.000173,-0.004046,0,0,0.998,0,1,rigid_body,0.1346,1,0.00112,0,-0.002227,-0.006780,0.026341,0.018940,-0.005935,-0.007145,-0.999777,-2.166,0.695,0.806
2025-10-17T22:02:32.186828,1.8903,-0.002107,-0.006602,0.026176,-0.002101,-0.007449,0.027135,0.002107,0.006602,0.001201,-0.010607,0.069,-0.608,0.000293,0.000025,0.000883,-0.000918,0.000049,-0.009738,3331474,4,1,1,0.16,132,128,0.001801,-0.013961,,12.616,0,0.000600,-0.003354,0,0,0.998,0,1,rigid_body,0.1348,1,0.00125,0,-0.002101,-0.007449,0.027135,0.022762,-0.005479,-0.005250,-0.999712,-2.605,0.641,0.587
2025-10-17T22:02:32.196868,1.9003,-0.002182,-0.007143,0.026632,-0.002310,-0.008000,0.027261,0.002182,0.007143,0.001596,-0.011438,0.091,-0.655,0.000303,0.000026,0.001267,-0.000993,0.000048,-0.010493,3331475,4,1,1,0.15,133,128,0.001801,-0.013961,,22.656,0,0.000206,-0.002523,0,0,0.998,0,1,rigid_body,0.1350,1,0.00115,0,-0.002310,-0.008000,0.027261,0.020831,-0.006810,-0.010260,-0.999707,-2.379,0.805,1.159
2025-10-17T22:02:32.206930,1.9104,-0.002333,-0.007673,0.027172,-0.002619,-0.008471,0.027958,0.002333,0.007673,0.002693,-0.011666,0.154,-0.668,0.000324,0.000026,0.002342,-0.001067,0.000046,-0.010646,3331476,4,1,1,0.16,134,130,0.001688,-0.010290,39.602,1.602,1,-0.001005,0.001376,0,0,0.998,0,1,rigid_body,0.1352,1,0.00117,0,-0.002619,-0.008471,0.027958,0.014625,-0.005416,-0.007142,-0.999853,-1.672,0.632,0.809
2025-10-17T22:02:32.217420,1.9209,-0.002354,-0.008310,0.027765,-0.002340,-0.009342,0.028744,0.002354,0.008310,0.001542,-0.012853,0.088,-0.736,0.000327,0.000027,0.001188,-0.001155,0.000044,-0.011743,3331477,4,1,1,0.23,135,130,0.001688,-0.010290,39.602,12.082,1,0.000146,0.002563,0,0,0.998,0,1,rigid_body,0.1353,1,0.00113,0,-0.002340,-0.009342,0.028744,0.019035,-0.005076,-0.004141,-0.999797,-2.179,0.591,0.463
2025-10-17T22:02:32.227492,1.9309,-0.002439,-0.008969,0.028438,-0.002590,-0.009999,0.029527,0.002439,0.008969,0.001862,-0.013867,0.107,-0.795,0.000339,0.000027,0.001496,-0.001247,0.000043,-0.012663,3331478,4,1,1,0.17,136,132,0.001201,-0.010607,33.826,6.942,1,-0.000661,0.003260,0,0,0.998,0,1,rigid_body,0.1356,1,0.00122,0,-0.002590,-0.009999,0.029527,0.708997,-0.018299,0.704915,0.009140,-115.131,-89.188,-67.094
2025-10-17T22:02:32.238033,1.9415,-0.002516,-0.009549,0.029043,-0.002593,-0.010404,0.030018,0.002516,0.009549,0.001880,-0.013091,0.108,-0.750,0.000350,0.000028,0.001502,-0.001327,0.000041,-0.011804,3331479,4,1,1,0.18,137,133,0.001596,-0.011438,,1.280,0,-0.000284,0.001653,0,0,0.998,0,1,rigid_body,0.1359,1,0.00116,0,-0.002593,-0.010404,0.030018,-0.012168,0.005099,0.005081,0.999900,-1.391,0.591,0.575
2025-10-17T22:02:32.248355,1.9518,-0.002599,-0.010136,0.029640,-0.002724,-0.010997,0.030456,0.002599,0.010136,0.001969,-0.013039,0.113,-0.747,0.000361,0.000028,0.001579,-0.001409,0.000039,-0.011668,3331480,4,1,1,0.17,138,133,0.001596,-0.011438,,11.606,0,-0.000373,0.001601,0,0,0.998,0,1,rigid_body,0.1361,1,0.00114,0,-0.002724,-0.010997,0.030456,-0.011062,0.003952,0.006431,0.999910,-1.265,0.461,0.732
2025-10-17T22:02:32.258879,1.9623,-0.002580,-0.010778,0.030243,-0.002542,-0.011731,0.031106,0.002580,0.010778,0.000794,-0.013600,0.045,-0.779,0.000359,0.000029,0.000406,-0.001498,0.000036,-0.012138,3331481,4,1,1,0.17,139,135,0.001542,-0.012853,34.553,7.066,1,0.000748,0.000746,0,0,0.998,0,1,rigid_body,0.1362,1,0.00122,0,-0.002542,-0.011731,0.031106,-0.012798,0.005888,0.005629,0.999885,-1.463,0.683,0.636
2025-10-17T22:02:32.269404,1.9728,-0.002619,-0.011463,0.030957,-0.002640,-0.012577,0.032115,0.002619,0.011463,0.001021,-0.014419,0.059,-0.826,0.000364,0.000029,0.000628,-0.001593,0.000034,-0.012860,3331482,4,1,1,0.22,140,136,0.001862,-0.013867,39.854,2.173,1,0.000841,0.000552,0,0,0.997,0,1,rigid_body,0.1363,1,0.00128,0,-0.002640,-0.012577,0.032115,0.709176,-0.020348,0.704681,0.008964,-112.733,-89.008,-69.642
2025-10-17T22:02:32.279570,1.9830,-0.002655,-0.012103,0.031557,-0.002727,-0.013109,0.032484,0.002655,0.012103,0.001087,-0.014565,0.062,-0.835,0.000369,0.000030,0.000688,-0.001682,0.000031,-0.012914,3331483,4,1,1,0.32,141,136,0.001862,-0.013867,39.854,12.339,1,0.000775,0.000698,0,0,0.998,0,1,rigid_body,0.1364,1,0.00115,0,-0.002727,-0.013109,0.032484,-0.013166,0.006611,0.002636,0.999888,-1.507,0.761,0.292
2025-10-17T22:02:32.290304,1.9937,-0.002727,-0.012755,0.032150,-0.002869,-0.013717,0.033027,0.002727,0.012755,0.001516,-0.014440,0.087,-0.827,0.000379,0.000030,0.001106,-0.001773,0.000029,-0.012696,3331484,4,1,1,0.47,142,138,0.001969,-0.013039,34.565,7.493,1,0.000453,0.001401,0,0,0.998,0,1,rigid_body,0.1366,1,0.00105,0,-0.002869,-0.013717,0.033027,-0.014779,0.005530,0.003575,0.999869,-1.691,0.640,0.400
2025-10-17T22:02:32.300522,2.0040,-0.002850,-0.013584,0.032809,-0.003122,-0.014925,0.033790,0.002850,0.013584,0.002308,-0.016659,0.132,-0.954,0.000396,0.000031,0.001880,-0.001888,0.000026,-0.014797,3331485,4,1,1,0.22,143,139,0.000794,-0.013600,39.637,2.115,1,-0.001514,0.003059,0,0,0.998,0,1,rigid_body,0.1366,1,0.00110,0,-0.003122,-0.014925,0.033790,-0.016710,0.005348,-0.008332,0.999811,-1.920,0.597,-0.965
2025-10-17T22:02:32.311137,2.0146,-0.002873,-0.014303,0.033532,-0.002836,-0.015374,0.034653,0.002873,0.014303,0.001449,-0.016232,0.083,-0.930,0.000399,0.000032,0.001018,-0.001988,0.000023,-0.014266,3331486,4,1,1,0.28,144,139,0.000794,-0.013600,39.637,12.722,1,-0.000655,0.002632,0,0,0.997,0,1,rigid_body,0.1367,1,0.00126,0,-0.002836,-0.015374,0.034653,0.710054,-0.016189,0.703696,0.019340,152.196,-89.425,24.924
2025-10-17T22:02:32.321524,2.0250,-0.002876,-0.014991,0.034147,-0.002817,-0.016028,0.035111,0.002876,0.014991,0.000879,-0.015836,0.050,-0.907,0.000400,0.000032,0.000447,-0.002084,0.000020,-0.013772,3331487,4,1,1,0.23,145,141,0.001087,-0.014565,34.367,7.756,1,0.000209,0.001271,0,0,0.998,0,1,rigid_body,0.1369,1,0.00109,0,-0.002817,-0.016028,0.035111,-0.022372,0.007375,-0.000280,0.999722,-2.564,0.844,-0.051
2025-10-17T22:02:32.331489,2.0349,-0.002972,-0.015715,0.034852,-0.003144,-0.016785,0.035943,0.002972,0.015715,0.001797,-0.016498,0.103,-0.945,0.000413,0.000033,0.001351,-0.002184,0.000017,-0.014330,3331488,4,1,1,0.16,146,143,0.002308,-0.016659,29.022,2.085,1,0.000511,-0.000161,0,0,0.998,0,1,rigid_body,0.1369,1,0.00117,0,-0.003144,-0.016785,0.035943,-0.019751,0.007867,-0.002811,0.999770,-2.266,0.895,-0.340
2025-10-17T22:02:32.341759,2.0452,-0.002960,-0.016467,0.035622,-0.002902,-0.017569,0.036815,0.002960,0.016467,0.000834,-0.016990,0.048,-0.973,0.000411,0.000033,0.000389,-0.002289,0.000013,-0.014714,3331489,4,1,1,0.19,147,143,0.002308,-0.016659,29.022,12.353,1,0.001474,0.000331,0,0,0.997,0,1,rigid_body,0.1370,1,0.00127,0,-0.002902,-0.017569,0.036815,-0.026400,0.008459,-0.007180,0.999590,-3.033,0.947,-0.848
